{"timestamp": "2026-03-11T12:38:31.619757Z", "count": 1, "best_confidence": 0.2566, "best_bbox": [1033, 549, 1285, 787], "classes": [0], "detections": [{"class_id": 0, "confidence": 0.25664687156677246, "bbox": [1033, 549, 1285, 787], "camera_id": "unreal_local", "timestamp": "2026-03-11T12:38:31.451419+00:00"}], "summary": {"raw_detection_count": 1, "classes": [0], "best_detection": {"confidence": 0.2566, "bbox": [1033, 549, 1285, 787]}}, "telemetry": {"position": {"lat": 47.60399553509639, "lon": -122.33570806530118, "alt": 120.0, "alt_agl": 15.397177696228027}, "orientation": {"yaw": 100.26597595214844, "pitch": 0.0, "roll": 0.0}, "camera_mount": {"pitch_deg": 32.0, "yaw_deg": 0.0, "roll_deg": 0.0}, "captured_at": "2026-03-11T12:38:31+00:00", "source": "sim"}}
{"timestamp": "2026-03-11T12:38:31.814259Z", "count": 1, "best_confidence": 0.7021, "best_bbox": [1, 546, 654, 1076], "classes": [0], "detections": [{"class_id": 0, "confidence": 0.7020649313926697, "bbox": [1, 546, 654, 1076], "camera_id": "unreal_local", "timestamp": "2026-03-11T12:38:31.662536+00:00"}], "summary": {"raw_detection_count": 1, "classes": [0], "best_detection": {"confidence": 0.7021, "bbox": [1, 546, 654, 1076]}}, "telemetry": {"position": {"lat": 47.60401163530022, "lon": -122.33571239032312, "alt": 120.0, "alt_agl": 15.014385223388672}, "orientation": {"yaw": 100.26597595214844, "pitch": 0.0, "roll": 0.0}, "camera_mount": {"pitch_deg": 32.0, "yaw_deg": 0.0, "roll_deg": 0.0}, "captured_at": "2026-03-11T12:38:31+00:00", "source": "sim"}}
{"timestamp": "2026-03-11T12:39:44.759672Z", "count": 1, "best_confidence": 0.4447, "best_bbox": [917, 2, 1920, 1080], "classes": [1], "detections": [{"class_id": 1, "confidence": 0.44470134377479553, "bbox": [917, 2, 1920, 1080], "camera_id": "unreal_local", "timestamp": "2026-03-11T12:39:44.629655+00:00"}], "summary": {"raw_detection_count": 1, "classes": [1], "best_detection": {"confidence": 0.4447, "bbox": [917, 2, 1920, 1080]}}, "telemetry": {"position": {"lat": 47.605135259459736, "lon": -122.33603126849225, "alt": 120.0, "alt_agl": 41.39299011230469}, "orientation": {"yaw": 100.10770416259766, "pitch": 0.0, "roll": 0.0}, "camera_mount": {"pitch_deg": 32.000000000000014, "yaw_deg": 0.0, "roll_deg": 0.0}, "captured_at": "2026-03-11T12:39:44+00:00", "source": "sim"}}
{"timestamp": "2026-03-11T12:39:45.685540Z", "count": 1, "best_confidence": 0.7342, "best_bbox": [763, 444, 910, 614], "classes": [0], "detections": [{"class_id": 0, "confidence": 0.7341708540916443, "bbox": [763, 444, 910, 614], "camera_id": "unreal_local", "timestamp": "2026-03-11T12:39:45.550453+00:00"}], "summary": {"raw_detection_count": 1, "classes": [0], "best_detection": {"confidence": 0.7342, "bbox": [763, 444, 910, 614]}}, "telemetry": {"position": {"lat": 47.60515398439128, "lon": -122.33603621940458, "alt": 120.0, "alt_agl": 41.28229522705078}, "orientation": {"yaw": 100.10770416259766, "pitch": 0.0, "roll": 0.0}, "camera_mount": {"pitch_deg": 32.000000000000014, "yaw_deg": 0.0, "roll_deg": 0.0}, "captured_at": "2026-03-11T12:39:45+00:00", "source": "sim"}}
{"timestamp": "2026-03-11T12:39:45.888348Z", "count": 1, "best_confidence": 0.7741, "best_bbox": [737, 434, 939, 624], "classes": [0], "detections": [{"class_id": 0, "confidence": 0.8139750361442566, "bbox": [737, 434, 939, 624], "camera_id": "unreal_local", "timestamp": "2026-03-11T12:39:45.887347+00:00"}], "summary": {"raw_detection_count": 1, "classes": [0], "best_detection": {"confidence": 0.7741, "bbox": [737, 434, 939, 624]}}, "telemetry": {"position": {"lat": 47.605155460461454, "lon": -122.33603660968076, "alt": 120.0, "alt_agl": 41.27430725097656}, "orientation": {"yaw": 100.10770416259766, "pitch": 0.0, "roll": 0.0}, "camera_mount": {"pitch_deg": 32.000000000000014, "yaw_deg": 0.0, "roll_deg": 0.0}, "captured_at": "2026-03-11T12:39:45+00:00", "source": "sim"}}
{"timestamp": "2026-03-11T12:39:46.219562Z", "count": 1, "best_confidence": 0.787, "best_bbox": [735, 411, 948, 626], "classes": [0], "detections": [{"class_id": 0, "confidence": 0.8128935694694519, "bbox": [735, 411, 948, 626], "camera_id": "unreal_local", "timestamp": "2026-03-11T12:39:46.219562+00:00"}], "summary": {"raw_detection_count": 1, "classes": [0], "best_detection": {"confidence": 0.787, "bbox": [735, 411, 948, 626]}}, "telemetry": {"position": {"lat": 47.60515842432523, "lon": -122.33603739333283, "alt": 120.0, "alt_agl": 41.2568473815918}, "orientation": {"yaw": 100.10770416259766, "pitch": 0.0, "roll": 0.0}, "camera_mount": {"pitch_deg": 32.000000000000014, "yaw_deg": 0.0, "roll_deg": 0.0}, "captured_at": "2026-03-11T12:39:46+00:00", "source": "sim"}}
{"timestamp": "2026-03-11T12:39:46.685495Z", "count": 1, "best_confidence": 0.8177, "best_bbox": [744, 400, 954, 627], "classes": [0], "detections": [{"class_id": 0, "confidence": 0.8263739347457886, "bbox": [744, 400, 954, 627], "camera_id": "unreal_local", "timestamp": "2026-03-11T12:39:46.551452+00:00"}], "summary": {"raw_detection_count": 1, "classes": [0], "best_detection": {"confidence": 0.8177, "bbox": [744, 400, 954, 627]}}, "telemetry": {"position": {"lat": 47.60516282206072, "lon": -122.3360385561037, "alt": 120.0, "alt_agl": 41.2158317565918}, "orientation": {"yaw": 100.10770416259766, "pitch": 0.0, "roll": 0.0}, "camera_mount": {"pitch_deg": 32.000000000000014, "yaw_deg": 0.0, "roll_deg": 0.0}, "captured_at": "2026-03-11T12:39:46+00:00", "source": "sim"}}
{"timestamp": "2026-03-11T12:39:46.895228Z", "count": 1, "best_confidence": 0.8631, "best_bbox": [730, 417, 974, 632], "classes": [0], "detections": [{"class_id": 0, "confidence": 0.8631390929222107, "bbox": [730, 417, 974, 632], "camera_id": "unreal_local", "timestamp": "2026-03-11T12:39:46.894219+00:00"}], "summary": {"raw_detection_count": 1, "classes": [0], "best_detection": {"confidence": 0.8631, "bbox": [730, 417, 974, 632]}}, "telemetry": {"position": {"lat": 47.60516429993781, "lon": -122.33603894685764, "alt": 120.0, "alt_agl": 41.199737548828125}, "orientation": {"yaw": 100.10770416259766, "pitch": 0.0, "roll": 0.0}, "camera_mount": {"pitch_deg": 32.000000000000014, "yaw_deg": 0.0, "roll_deg": 0.0}, "captured_at": "2026-03-11T12:39:46+00:00", "source": "sim"}}
{"timestamp": "2026-03-11T12:39:49.830507Z", "count": 2, "best_confidence": 0.8497, "best_bbox": [737, 409, 959, 676], "classes": [0, 0], "detections": [{"class_id": 0, "confidence": 0.8362134099006653, "bbox": [737, 409, 959, 676], "camera_id": "unreal_local", "timestamp": "2026-03-11T12:39:49.829508+00:00"}, {"class_id": 0, "confidence": 0.5676045417785645, "bbox": [504, 514, 701, 626], "camera_id": "unreal_local", "timestamp": "2026-03-11T12:39:49.829508+00:00"}], "summary": {"raw_detection_count": 2, "classes": [0, 0], "best_detection": {"confidence": 0.8497, "bbox": [737, 409, 959, 676]}}, "telemetry": {"position": {"lat": 47.60518908307326, "lon": -122.33604549957286, "alt": 120.0, "alt_agl": 40.85384750366211}, "orientation": {"yaw": 100.10770416259766, "pitch": 0.0, "roll": 0.0}, "camera_mount": {"pitch_deg": 32.000000000000014, "yaw_deg": 0.0, "roll_deg": 0.0}, "captured_at": "2026-03-11T12:39:49+00:00", "source": "sim"}}
{"timestamp": "2026-03-11T12:39:50.209642Z", "count": 2, "best_confidence": 0.8254, "best_bbox": [715, 414, 961, 684], "classes": [0, 0], "detections": [{"class_id": 0, "confidence": 0.776811957359314, "bbox": [715, 414, 961, 684], "camera_id": "unreal_local", "timestamp": "2026-03-11T12:39:50.057207+00:00"}, {"class_id": 0, "confidence": 0.5029004216194153, "bbox": [492, 516, 718, 644], "camera_id": "unreal_local", "timestamp": "2026-03-11T12:39:50.057207+00:00"}], "summary": {"raw_detection_count": 2, "classes": [0, 0], "best_detection": {"confidence": 0.8254, "bbox": [715, 414, 961, 684]}}, "telemetry": {"position": {"lat": 47.60521627426016, "lon": -122.336052688981, "alt": 120.0, "alt_agl": 40.27352523803711}, "orientation": {"yaw": 100.10770416259766, "pitch": 0.0, "roll": 0.0}, "camera_mount": {"pitch_deg": 32.000000000000014, "yaw_deg": 0.0, "roll_deg": 0.0}, "captured_at": "2026-03-11T12:39:50+00:00", "source": "sim"}}
{"timestamp": "2026-03-11T12:39:50.462574Z", "count": 2, "best_confidence": 0.8297, "best_bbox": [725, 464, 960, 722], "classes": [0, 0], "detections": [{"class_id": 0, "confidence": 0.8761178851127625, "bbox": [725, 464, 960, 722], "camera_id": "unreal_local", "timestamp": "2026-03-11T12:39:50.460063+00:00"}, {"class_id": 0, "confidence": 0.63987797498703, "bbox": [464, 501, 694, 661], "camera_id": "unreal_local", "timestamp": "2026-03-11T12:39:50.460063+00:00"}], "summary": {"raw_detection_count": 2, "classes": [0, 0], "best_detection": {"confidence": 0.8297, "bbox": [725, 464, 960, 722]}}, "telemetry": {"position": {"lat": 47.60522584677614, "lon": -122.33605521997474, "alt": 120.0, "alt_agl": 40.04465866088867}, "orientation": {"yaw": 100.10770416259766, "pitch": 0.0, "roll": 0.0}, "camera_mount": {"pitch_deg": 32.000000000000014, "yaw_deg": 0.0, "roll_deg": 0.0}, "captured_at": "2026-03-11T12:39:50+00:00", "source": "sim"}}
{"timestamp": "2026-03-11T12:39:50.830014Z", "count": 2, "best_confidence": 0.7856, "best_bbox": [700, 493, 953, 787], "classes": [0, 0], "detections": [{"class_id": 0, "confidence": 0.703986406326294, "bbox": [700, 493, 953, 787], "camera_id": "unreal_local", "timestamp": "2026-03-11T12:39:50.829015+00:00"}, {"class_id": 0, "confidence": 0.4255998134613037, "bbox": [417, 500, 748, 717], "camera_id": "unreal_local", "timestamp": "2026-03-11T12:39:50.829015+00:00"}], "summary": {"raw_detection_count": 2, "classes": [0, 0], "best_detection": {"confidence": 0.7856, "bbox": [700, 493, 953, 787]}}, "telemetry": {"position": {"lat": 47.60525122940885, "lon": -122.33606193119721, "alt": 120.0, "alt_agl": 39.39970779418945}, "orientation": {"yaw": 100.10770416259766, "pitch": 0.0, "roll": 0.0}, "camera_mount": {"pitch_deg": 32.000000000000014, "yaw_deg": 0.0, "roll_deg": 0.0}, "captured_at": "2026-03-11T12:39:50+00:00", "source": "sim"}}
{"timestamp": "2026-03-11T12:39:51.246421Z", "count": 2, "best_confidence": 0.7031, "best_bbox": [637, 513, 988, 828], "classes": [0, 0], "detections": [{"class_id": 0, "confidence": 0.5292529463768005, "bbox": [637, 513, 988, 828], "camera_id": "unreal_local", "timestamp": "2026-03-11T12:39:51.133376+00:00"}, {"class_id": 0, "confidence": 0.5047032237052917, "bbox": [1471, 413, 1609, 547], "camera_id": "unreal_local", "timestamp": "2026-03-11T12:39:51.133376+00:00"}], "summary": {"raw_detection_count": 2, "classes": [0, 0], "best_detection": {"confidence": 0.7031, "bbox": [637, 513, 988, 828]}}, "telemetry": {"position": {"lat": 47.60528388310739, "lon": -122.33607056490506, "alt": 120.0, "alt_agl": 38.62417984008789}, "orientation": {"yaw": 100.10770416259766, "pitch": 0.0, "roll": 0.0}, "camera_mount": {"pitch_deg": 32.000000000000014, "yaw_deg": 0.0, "roll_deg": 0.0}, "captured_at": "2026-03-11T12:39:51+00:00", "source": "sim"}}
{"timestamp": "2026-03-11T12:39:51.549488Z", "count": 3, "best_confidence": 0.6724, "best_bbox": [1212, 299, 1347, 517], "classes": [0, 0, 0], "detections": [{"class_id": 0, "confidence": 0.6723893880844116, "bbox": [1212, 299, 1347, 517], "camera_id": "unreal_local", "timestamp": "2026-03-11T12:39:51.432087+00:00"}, {"class_id": 0, "confidence": 0.5888354182243347, "bbox": [666, 520, 1004, 886], "camera_id": "unreal_local", "timestamp": "2026-03-11T12:39:51.432087+00:00"}, {"class_id": 0, "confidence": 0.5307990312576294, "bbox": [361, 575, 731, 821], "camera_id": "unreal_local", "timestamp": "2026-03-11T12:39:51.432087+00:00"}], "summary": {"raw_detection_count": 3, "classes": [0, 0, 0], "best_detection": {"confidence": 0.6724, "bbox": [1212, 299, 1347, 517]}}, "telemetry": {"position": {"lat": 47.60530377534834, "lon": -122.33607582445619, "alt": 120.0, "alt_agl": 38.16831970214844}, "orientation": {"yaw": 100.10770416259766, "pitch": 0.0, "roll": 0.0}, "camera_mount": {"pitch_deg": 32.000000000000014, "yaw_deg": 0.0, "roll_deg": 0.0}, "captured_at": "2026-03-11T12:39:51+00:00", "source": "sim"}}
{"timestamp": "2026-03-11T12:39:51.852034Z", "count": 2, "best_confidence": 0.5345, "best_bbox": [1223, 324, 1386, 568], "classes": [0, 0], "detections": [{"class_id": 0, "confidence": 0.39654961228370667, "bbox": [1223, 324, 1386, 568], "camera_id": "unreal_local", "timestamp": "2026-03-11T12:39:51.730537+00:00"}, {"class_id": 0, "confidence": 0.297714501619339, "bbox": [359, 536, 967, 906], "camera_id": "unreal_local", "timestamp": "2026-03-11T12:39:51.730537+00:00"}], "summary": {"raw_detection_count": 2, "classes": [0, 0], "best_detection": {"confidence": 0.5345, "bbox": [1223, 324, 1386, 568]}}, "telemetry": {"position": {"lat": 47.60532372304503, "lon": -122.33608109866994, "alt": 120.0, "alt_agl": 37.68049621582031}, "orientation": {"yaw": 100.10770416259766, "pitch": 0.0, "roll": 0.0}, "camera_mount": {"pitch_deg": 32.000000000000014, "yaw_deg": 0.0, "roll_deg": 0.0}, "captured_at": "2026-03-11T12:39:51+00:00", "source": "sim"}}
{"timestamp": "2026-03-11T12:39:52.178934Z", "count": 3, "best_confidence": 0.5914, "best_bbox": [1239, 297, 1441, 632], "classes": [0, 0, 0], "detections": [{"class_id": 0, "confidence": 0.7053554058074951, "bbox": [1239, 297, 1441, 632], "camera_id": "unreal_local", "timestamp": "2026-03-11T12:39:52.045099+00:00"}, {"class_id": 0, "confidence": 0.4459722638130188, "bbox": [487, 533, 956, 939], "camera_id": "unreal_local", "timestamp": "2026-03-11T12:39:52.045099+00:00"}, {"class_id": 0, "confidence": 0.34600239992141724, "bbox": [1431, 731, 1695, 960], "camera_id": "unreal_local", "timestamp": "2026-03-11T12:39:52.045099+00:00"}], "summary": {"raw_detection_count": 3, "classes": [0, 0, 0], "best_detection": {"confidence": 0.5914, "bbox": [1239, 297, 1441, 632]}}, "telemetry": {"position": {"lat": 47.60534401590466, "lon": -122.3360864641455, "alt": 120.0, "alt_agl": 37.14448165893555}, "orientation": {"yaw": 100.10770416259766, "pitch": 0.0, "roll": 0.0}, "camera_mount": {"pitch_deg": 32.000000000000014, "yaw_deg": 0.0, "roll_deg": 0.0}, "captured_at": "2026-03-11T12:39:51+00:00", "source": "sim"}}
{"timestamp": "2026-03-11T12:39:52.508867Z", "count": 3, "best_confidence": 0.5882, "best_bbox": [1285, 363, 1509, 671], "classes": [0, 0, 0], "detections": [{"class_id": 0, "confidence": 0.6626389622688293, "bbox": [1285, 363, 1509, 671], "camera_id": "unreal_local", "timestamp": "2026-03-11T12:39:52.380237+00:00"}, {"class_id": 0, "confidence": 0.6325491666793823, "bbox": [1487, 663, 1792, 1064], "camera_id": "unreal_local", "timestamp": "2026-03-11T12:39:52.380237+00:00"}, {"class_id": 0, "confidence": 0.40914881229400635, "bbox": [618, 532, 948, 1019], "camera_id": "unreal_local", "timestamp": "2026-03-11T12:39:52.380237+00:00"}], "summary": {"raw_detection_count": 3, "classes": [0, 0, 0], "best_detection": {"confidence": 0.5882, "bbox": [1285, 363, 1509, 671]}}, "telemetry": {"position": {"lat": 47.60536696325111, "lon": -122.33609253147306, "alt": 120.0, "alt_agl": 36.46240234375}, "orientation": {"yaw": 100.10770416259766, "pitch": 0.0, "roll": 0.0}, "camera_mount": {"pitch_deg": 32.000000000000014, "yaw_deg": 0.0, "roll_deg": 0.0}, "captured_at": "2026-03-11T12:39:52+00:00", "source": "sim"}}
{"timestamp": "2026-03-11T12:40:04.208808Z", "count": 1, "best_confidence": 0.7607, "best_bbox": [933, 520, 1114, 664], "classes": [0], "detections": [{"class_id": 0, "confidence": 0.7607412934303284, "bbox": [933, 520, 1114, 664], "camera_id": "unreal_local", "timestamp": "2026-03-11T12:40:04.207975+00:00"}], "summary": {"raw_detection_count": 1, "classes": [0], "best_detection": {"confidence": 0.7607, "bbox": [933, 520, 1114, 664]}}, "telemetry": {"position": {"lat": 47.60614136006108, "lon": -122.33629728364873, "alt": 120.0, "alt_agl": 23.644004821777344}, "orientation": {"yaw": 100.10770416259766, "pitch": 0.0, "roll": 0.0}, "camera_mount": {"pitch_deg": 32.000000000000014, "yaw_deg": 0.0, "roll_deg": 0.0}, "captured_at": "2026-03-11T12:40:04+00:00", "source": "sim"}}
{"timestamp": "2026-03-11T12:40:04.627621Z", "count": 1, "best_confidence": 0.7823, "best_bbox": [919, 493, 1161, 672], "classes": [0], "detections": [{"class_id": 0, "confidence": 0.8039276599884033, "bbox": [919, 493, 1161, 672], "camera_id": "unreal_local", "timestamp": "2026-03-11T12:40:04.508076+00:00"}], "summary": {"raw_detection_count": 1, "classes": [0], "best_detection": {"confidence": 0.7823, "bbox": [919, 493, 1161, 672]}}, "telemetry": {"position": {"lat": 47.60617115720517, "lon": -122.33630516207747, "alt": 120.0, "alt_agl": 24.177705764770508}, "orientation": {"yaw": 100.10770416259766, "pitch": 0.0, "roll": 0.0}, "camera_mount": {"pitch_deg": 32.000000000000014, "yaw_deg": 0.0, "roll_deg": 0.0}, "captured_at": "2026-03-11T12:40:04+00:00", "source": "sim"}}
{"timestamp": "2026-03-11T12:40:04.838148Z", "count": 1, "best_confidence": 0.8095, "best_bbox": [837, 484, 1196, 697], "classes": [0], "detections": [{"class_id": 0, "confidence": 0.8638148307800293, "bbox": [837, 484, 1196, 697], "camera_id": "unreal_local", "timestamp": "2026-03-11T12:40:04.838148+00:00"}], "summary": {"raw_detection_count": 1, "classes": [0], "best_detection": {"confidence": 0.8095, "bbox": [837, 484, 1196, 697]}}, "telemetry": {"position": {"lat": 47.606180940258426, "lon": -122.33630774873771, "alt": 120.0, "alt_agl": 24.376211166381836}, "orientation": {"yaw": 100.10770416259766, "pitch": 0.0, "roll": 0.0}, "camera_mount": {"pitch_deg": 32.000000000000014, "yaw_deg": 0.0, "roll_deg": 0.0}, "captured_at": "2026-03-11T12:40:04+00:00", "source": "sim"}}
{"timestamp": "2026-03-11T12:40:05.236057Z", "count": 1, "best_confidence": 0.7167, "best_bbox": [914, 459, 1131, 592], "classes": [0], "detections": [{"class_id": 0, "confidence": 0.48228710889816284, "bbox": [914, 459, 1131, 592], "camera_id": "unreal_local", "timestamp": "2026-03-11T12:40:05.124327+00:00"}], "summary": {"raw_detection_count": 1, "classes": [0], "best_detection": {"confidence": 0.7167, "bbox": [914, 459, 1131, 592]}}, "telemetry": {"position": {"lat": 47.60621221908387, "lon": -122.33631601892617, "alt": 120.0, "alt_agl": 25.038389205932617}, "orientation": {"yaw": 100.10770416259766, "pitch": 0.0, "roll": 0.0}, "camera_mount": {"pitch_deg": 32.000000000000014, "yaw_deg": 0.0, "roll_deg": 0.0}, "captured_at": "2026-03-11T12:40:05+00:00", "source": "sim"}}
{"timestamp": "2026-03-11T12:40:05.530039Z", "count": 2, "best_confidence": 0.7147, "best_bbox": [809, 458, 1167, 768], "classes": [0, 0], "detections": [{"class_id": 0, "confidence": 0.7980112433433533, "bbox": [809, 458, 1167, 768], "camera_id": "unreal_local", "timestamp": "2026-03-11T12:40:05.411855+00:00"}, {"class_id": 0, "confidence": 0.2705925405025482, "bbox": [817, 456, 1326, 766], "camera_id": "unreal_local", "timestamp": "2026-03-11T12:40:05.411855+00:00"}], "summary": {"raw_detection_count": 2, "classes": [0, 0], "best_detection": {"confidence": 0.7147, "bbox": [809, 458, 1167, 768]}}, "telemetry": {"position": {"lat": 47.60623129755674, "lon": -122.33632106331527, "alt": 120.0, "alt_agl": 25.464881896972656}, "orientation": {"yaw": 100.10770416259766, "pitch": 0.0, "roll": 0.0}, "camera_mount": {"pitch_deg": 32.000000000000014, "yaw_deg": 0.0, "roll_deg": 0.0}, "captured_at": "2026-03-11T12:40:05+00:00", "source": "sim"}}
{"timestamp": "2026-03-11T12:40:05.845305Z", "count": 2, "best_confidence": 0.5939, "best_bbox": [843, 435, 1154, 802], "classes": [0, 0], "detections": [{"class_id": 0, "confidence": 0.5015431046485901, "bbox": [843, 435, 1154, 802], "camera_id": "unreal_local", "timestamp": "2026-03-11T12:40:05.731669+00:00"}, {"class_id": 0, "confidence": 0.42100203037261963, "bbox": [853, 435, 1363, 796], "camera_id": "unreal_local", "timestamp": "2026-03-11T12:40:05.731669+00:00"}], "summary": {"raw_detection_count": 2, "classes": [0, 0], "best_detection": {"confidence": 0.5939, "bbox": [843, 435, 1154, 802]}}, "telemetry": {"position": {"lat": 47.60625240579636, "lon": -122.33632664437904, "alt": 120.0, "alt_agl": 25.9459285736084}, "orientation": {"yaw": 100.10770416259766, "pitch": 0.0, "roll": 0.0}, "camera_mount": {"pitch_deg": 32.000000000000014, "yaw_deg": 0.0, "roll_deg": 0.0}, "captured_at": "2026-03-11T12:40:05+00:00", "source": "sim"}}
{"timestamp": "2026-03-11T12:40:06.027946Z", "count": 2, "best_confidence": 0.6879, "best_bbox": [853, 419, 1150, 825], "classes": [0, 0], "detections": [{"class_id": 0, "confidence": 0.7642704248428345, "bbox": [853, 419, 1150, 825], "camera_id": "unreal_local", "timestamp": "2026-03-11T12:40:06.026946+00:00"}, {"class_id": 0, "confidence": 0.2801789343357086, "bbox": [1211, 589, 1393, 804], "camera_id": "unreal_local", "timestamp": "2026-03-11T12:40:06.026946+00:00"}], "summary": {"raw_detection_count": 2, "classes": [0, 0], "best_detection": {"confidence": 0.6879, "bbox": [853, 419, 1150, 825]}}, "telemetry": {"position": {"lat": 47.606262079038046, "lon": -122.33632920200488, "alt": 120.0, "alt_agl": 26.186416625976562}, "orientation": {"yaw": 100.10770416259766, "pitch": 0.0, "roll": 0.0}, "camera_mount": {"pitch_deg": 32.000000000000014, "yaw_deg": 0.0, "roll_deg": 0.0}, "captured_at": "2026-03-11T12:40:05+00:00", "source": "sim"}}
{"timestamp": "2026-03-11T12:40:06.343721Z", "count": 2, "best_confidence": 0.6879, "best_bbox": [358, 724, 493, 950], "classes": [0, 0], "detections": [{"class_id": 0, "confidence": 0.37104475498199463, "bbox": [358, 724, 493, 950], "camera_id": "unreal_local", "timestamp": "2026-03-11T12:40:06.342724+00:00"}, {"class_id": 0, "confidence": 0.28524965047836304, "bbox": [825, 401, 1460, 890], "camera_id": "unreal_local", "timestamp": "2026-03-11T12:40:06.342724+00:00"}], "summary": {"raw_detection_count": 2, "classes": [0, 0], "best_detection": {"confidence": 0.6879, "bbox": [358, 724, 493, 950]}}, "telemetry": {"position": {"lat": 47.60628137495226, "lon": -122.33633430388593, "alt": 120.0, "alt_agl": 26.611034393310547}, "orientation": {"yaw": 100.10770416259766, "pitch": 0.0, "roll": 0.0}, "camera_mount": {"pitch_deg": 32.000000000000014, "yaw_deg": 0.0, "roll_deg": 0.0}, "captured_at": "2026-03-11T12:40:06+00:00", "source": "sim"}}
{"timestamp": "2026-03-11T12:40:07.108531Z", "count": 1, "best_confidence": 0.4647, "best_bbox": [1437, 556, 1658, 969], "classes": [0], "detections": [{"class_id": 0, "confidence": 0.4647373557090759, "bbox": [1437, 556, 1658, 969], "camera_id": "unreal_local", "timestamp": "2026-03-11T12:40:06.994302+00:00"}], "summary": {"raw_detection_count": 1, "classes": [0], "best_detection": {"confidence": 0.4647, "bbox": [1437, 556, 1658, 969]}}, "telemetry": {"position": {"lat": 47.60633621339359, "lon": -122.33634880328731, "alt": 120.0, "alt_agl": 27.805683135986328}, "orientation": {"yaw": 100.10770416259766, "pitch": 0.0, "roll": 0.0}, "camera_mount": {"pitch_deg": 32.000000000000014, "yaw_deg": 0.0, "roll_deg": 0.0}, "captured_at": "2026-03-11T12:40:06+00:00", "source": "sim"}}
{"timestamp": "2026-03-11T12:40:07.282005Z", "count": 2, "best_confidence": 0.4477, "best_bbox": [1559, 527, 1719, 659], "classes": [0, 0], "detections": [{"class_id": 0, "confidence": 0.4477432668209076, "bbox": [1559, 527, 1719, 659], "camera_id": "unreal_local", "timestamp": "2026-03-11T12:40:07.282005+00:00"}, {"class_id": 0, "confidence": 0.31202006340026855, "bbox": [1518, 644, 1756, 1007], "camera_id": "unreal_local", "timestamp": "2026-03-11T12:40:07.282005+00:00"}], "summary": {"raw_detection_count": 2, "classes": [0, 0], "best_detection": {"confidence": 0.4477, "bbox": [1559, 527, 1719, 659]}}, "telemetry": {"position": {"lat": 47.60634590532671, "lon": -122.3363513658552, "alt": 120.0, "alt_agl": 27.968299865722656}, "orientation": {"yaw": 100.10770416259766, "pitch": 0.0, "roll": 0.0}, "camera_mount": {"pitch_deg": 32.000000000000014, "yaw_deg": 0.0, "roll_deg": 0.0}, "captured_at": "2026-03-11T12:40:07+00:00", "source": "sim"}}
{"timestamp": "2026-03-11T12:40:15.653973Z", "count": 1, "best_confidence": 0.5699, "best_bbox": [796, 563, 893, 664], "classes": [0], "detections": [{"class_id": 0, "confidence": 0.5698625445365906, "bbox": [796, 563, 893, 664], "camera_id": "unreal_local", "timestamp": "2026-03-11T12:40:15.652451+00:00"}], "summary": {"raw_detection_count": 1, "classes": [0], "best_detection": {"confidence": 0.5699, "bbox": [796, 563, 893, 664]}}, "telemetry": {"position": {"lat": 47.606901982329845, "lon": -122.3364983938062, "alt": 120.0, "alt_agl": 36.54669952392578}, "orientation": {"yaw": 100.10770416259766, "pitch": 0.0, "roll": 0.0}, "camera_mount": {"pitch_deg": 32.000000000000014, "yaw_deg": 0.0, "roll_deg": 0.0}, "captured_at": "2026-03-11T12:40:15+00:00", "source": "sim"}}
{"timestamp": "2026-03-11T12:40:16.007412Z", "count": 1, "best_confidence": 0.5699, "best_bbox": [790, 525, 1050, 660], "classes": [0], "detections": [{"class_id": 0, "confidence": 0.311413437128067, "bbox": [790, 525, 1050, 660], "camera_id": "unreal_local", "timestamp": "2026-03-11T12:40:15.913219+00:00"}], "summary": {"raw_detection_count": 1, "classes": [0], "best_detection": {"confidence": 0.5699, "bbox": [790, 525, 1050, 660]}}, "telemetry": {"position": {"lat": 47.606913651848416, "lon": -122.33650147925201, "alt": 120.0, "alt_agl": 36.66264724731445}, "orientation": {"yaw": 100.10770416259766, "pitch": 0.0, "roll": 0.0}, "camera_mount": {"pitch_deg": 32.000000000000014, "yaw_deg": 0.0, "roll_deg": 0.0}, "captured_at": "2026-03-11T12:40:15+00:00", "source": "sim"}}
{"timestamp": "2026-03-11T12:40:16.717382Z", "count": 3, "best_confidence": 0.5519, "best_bbox": [781, 498, 895, 654], "classes": [0, 0, 0], "detections": [{"class_id": 0, "confidence": 0.5518578290939331, "bbox": [781, 498, 895, 654], "camera_id": "unreal_local", "timestamp": "2026-03-11T12:40:16.716879+00:00"}, {"class_id": 0, "confidence": 0.4205545485019684, "bbox": [1121, 498, 1207, 596], "camera_id": "unreal_local", "timestamp": "2026-03-11T12:40:16.716879+00:00"}, {"class_id": 0, "confidence": 0.2502810060977936, "bbox": [1129, 509, 1205, 590], "camera_id": "unreal_local", "timestamp": "2026-03-11T12:40:16.716879+00:00"}], "summary": {"raw_detection_count": 3, "classes": [0, 0, 0], "best_detection": {"confidence": 0.5519, "bbox": [781, 498, 895, 654]}}, "telemetry": {"position": {"lat": 47.60691965344009, "lon": -122.33650306608597, "alt": 120.0, "alt_agl": 36.707393646240234}, "orientation": {"yaw": 100.10770416259766, "pitch": 0.0, "roll": 0.0}, "camera_mount": {"pitch_deg": 32.000000000000014, "yaw_deg": 0.0, "roll_deg": 0.0}, "captured_at": "2026-03-11T12:40:16+00:00", "source": "sim"}}
{"timestamp": "2026-03-11T12:40:16.977158Z", "count": 2, "best_confidence": 0.6831, "best_bbox": [777, 496, 875, 673], "classes": [0, 0], "detections": [{"class_id": 0, "confidence": 0.8142833709716797, "bbox": [777, 496, 875, 673], "camera_id": "unreal_local", "timestamp": "2026-03-11T12:40:16.976160+00:00"}, {"class_id": 0, "confidence": 0.6790908575057983, "bbox": [1092, 457, 1235, 590], "camera_id": "unreal_local", "timestamp": "2026-03-11T12:40:16.976160+00:00"}], "summary": {"raw_detection_count": 2, "classes": [0, 0], "best_detection": {"confidence": 0.6831, "bbox": [777, 496, 875, 673]}}, "telemetry": {"position": {"lat": 47.606921949284995, "lon": -122.33650367311239, "alt": 120.0, "alt_agl": 36.72600555419922}, "orientation": {"yaw": 100.10770416259766, "pitch": 0.0, "roll": 0.0}, "camera_mount": {"pitch_deg": 32.000000000000014, "yaw_deg": 0.0, "roll_deg": 0.0}, "captured_at": "2026-03-11T12:40:16+00:00", "source": "sim"}}
{"timestamp": "2026-03-11T12:40:17.268863Z", "count": 2, "best_confidence": 0.6831, "best_bbox": [1134, 453, 1250, 590], "classes": [0, 0], "detections": [{"class_id": 0, "confidence": 0.7672001719474792, "bbox": [1134, 453, 1250, 590], "camera_id": "unreal_local", "timestamp": "2026-03-11T12:40:17.268863+00:00"}, {"class_id": 0, "confidence": 0.6831977367401123, "bbox": [777, 504, 879, 668], "camera_id": "unreal_local", "timestamp": "2026-03-11T12:40:17.268863+00:00"}], "summary": {"raw_detection_count": 2, "classes": [0, 0], "best_detection": {"confidence": 0.6831, "bbox": [1134, 453, 1250, 590]}}, "telemetry": {"position": {"lat": 47.606924238537836, "lon": -122.33650427839585, "alt": 120.0, "alt_agl": 36.74174880981445}, "orientation": {"yaw": 100.10770416259766, "pitch": 0.0, "roll": 0.0}, "camera_mount": {"pitch_deg": 32.000000000000014, "yaw_deg": 0.0, "roll_deg": 0.0}, "captured_at": "2026-03-11T12:40:17+00:00", "source": "sim"}}
{"timestamp": "2026-03-11T12:40:17.525084Z", "count": 2, "best_confidence": 0.7425, "best_bbox": [1132, 454, 1272, 596], "classes": [0, 0], "detections": [{"class_id": 0, "confidence": 0.7811056971549988, "bbox": [1132, 454, 1272, 596], "camera_id": "unreal_local", "timestamp": "2026-03-11T12:40:17.524082+00:00"}, {"class_id": 0, "confidence": 0.5830121636390686, "bbox": [781, 475, 878, 663], "camera_id": "unreal_local", "timestamp": "2026-03-11T12:40:17.524082+00:00"}], "summary": {"raw_detection_count": 2, "classes": [0, 0], "best_detection": {"confidence": 0.7425, "bbox": [1132, 454, 1272, 596]}}, "telemetry": {"position": {"lat": 47.606926779261045, "lon": -122.33650495016862, "alt": 120.0, "alt_agl": 36.75723648071289}, "orientation": {"yaw": 100.10770416259766, "pitch": 0.0, "roll": 0.0}, "camera_mount": {"pitch_deg": 32.000000000000014, "yaw_deg": 0.0, "roll_deg": 0.0}, "captured_at": "2026-03-11T12:40:17+00:00", "source": "sim"}}
{"timestamp": "2026-03-11T12:40:17.785329Z", "count": 2, "best_confidence": 0.7568, "best_bbox": [1136, 455, 1287, 581], "classes": [0, 0], "detections": [{"class_id": 0, "confidence": 0.7222184538841248, "bbox": [1136, 455, 1287, 581], "camera_id": "unreal_local", "timestamp": "2026-03-11T12:40:17.784330+00:00"}, {"class_id": 0, "confidence": 0.7198945879936218, "bbox": [774, 444, 876, 599], "camera_id": "unreal_local", "timestamp": "2026-03-11T12:40:17.784330+00:00"}], "summary": {"raw_detection_count": 2, "classes": [0, 0], "best_detection": {"confidence": 0.7568, "bbox": [1136, 455, 1287, 581]}}, "telemetry": {"position": {"lat": 47.606929063064435, "lon": -122.33650555401123, "alt": 120.0, "alt_agl": 36.768653869628906}, "orientation": {"yaw": 100.10770416259766, "pitch": 0.0, "roll": 0.0}, "camera_mount": {"pitch_deg": 32.000000000000014, "yaw_deg": 0.0, "roll_deg": 0.0}, "captured_at": "2026-03-11T12:40:17+00:00", "source": "sim"}}
{"timestamp": "2026-03-11T12:40:18.042311Z", "count": 3, "best_confidence": 0.7255, "best_bbox": [782, 439, 875, 604], "classes": [0, 0, 0], "detections": [{"class_id": 0, "confidence": 0.6740779876708984, "bbox": [782, 439, 875, 604], "camera_id": "unreal_local", "timestamp": "2026-03-11T12:40:18.041309+00:00"}, {"class_id": 0, "confidence": 0.6733235120773315, "bbox": [1147, 458, 1306, 549], "camera_id": "unreal_local", "timestamp": "2026-03-11T12:40:18.041309+00:00"}, {"class_id": 0, "confidence": 0.5805972814559937, "bbox": [830, 284, 1046, 449], "camera_id": "unreal_local", "timestamp": "2026-03-11T12:40:18.041309+00:00"}], "summary": {"raw_detection_count": 3, "classes": [0, 0, 0], "best_detection": {"confidence": 0.7255, "bbox": [782, 439, 875, 604]}}, "telemetry": {"position": {"lat": 47.60693132909818, "lon": -122.33650615315551, "alt": 120.0, "alt_agl": 36.777587890625}, "orientation": {"yaw": 100.10770416259766, "pitch": 0.0, "roll": 0.0}, "camera_mount": {"pitch_deg": 32.000000000000014, "yaw_deg": 0.0, "roll_deg": 0.0}, "captured_at": "2026-03-11T12:40:17+00:00", "source": "sim"}}
{"timestamp": "2026-03-11T12:40:18.393048Z", "count": 2, "best_confidence": 0.7255, "best_bbox": [762, 437, 870, 587], "classes": [0, 0], "detections": [{"class_id": 0, "confidence": 0.7567075490951538, "bbox": [762, 437, 870, 587], "camera_id": "unreal_local", "timestamp": "2026-03-11T12:40:18.298194+00:00"}, {"class_id": 0, "confidence": 0.5444321036338806, "bbox": [938, 252, 1052, 360], "camera_id": "unreal_local", "timestamp": "2026-03-11T12:40:18.298194+00:00"}], "summary": {"raw_detection_count": 2, "classes": [0, 0], "best_detection": {"confidence": 0.7255, "bbox": [762, 437, 870, 587]}}, "telemetry": {"position": {"lat": 47.60693474916451, "lon": -122.33650705742852, "alt": 120.0, "alt_agl": 36.788780212402344}, "orientation": {"yaw": 100.10770416259766, "pitch": 0.0, "roll": 0.0}, "camera_mount": {"pitch_deg": 32.000000000000014, "yaw_deg": 0.0, "roll_deg": 0.0}, "captured_at": "2026-03-11T12:40:18+00:00", "source": "sim"}}
{"timestamp": "2026-03-11T12:40:18.653851Z", "count": 3, "best_confidence": 0.6784, "best_bbox": [936, 244, 1043, 361], "classes": [0, 0, 0], "detections": [{"class_id": 0, "confidence": 0.7899050712585449, "bbox": [936, 244, 1043, 361], "camera_id": "unreal_local", "timestamp": "2026-03-11T12:40:18.554288+00:00"}, {"class_id": 0, "confidence": 0.6043365001678467, "bbox": [769, 413, 894, 582], "camera_id": "unreal_local", "timestamp": "2026-03-11T12:40:18.554288+00:00"}, {"class_id": 0, "confidence": 0.4212472438812256, "bbox": [1131, 498, 1307, 608], "camera_id": "unreal_local", "timestamp": "2026-03-11T12:40:18.554288+00:00"}], "summary": {"raw_detection_count": 3, "classes": [0, 0, 0], "best_detection": {"confidence": 0.6784, "bbox": [936, 244, 1043, 361]}}, "telemetry": {"position": {"lat": 47.60693701287854, "lon": -122.33650765595947, "alt": 120.0, "alt_agl": 36.79551696777344}, "orientation": {"yaw": 100.10770416259766, "pitch": 0.0, "roll": 0.0}, "camera_mount": {"pitch_deg": 32.000000000000014, "yaw_deg": 0.0, "roll_deg": 0.0}, "captured_at": "2026-03-11T12:40:18+00:00", "source": "sim"}}
{"timestamp": "2026-03-11T12:40:18.816708Z", "count": 5, "best_confidence": 0.4712, "best_bbox": [1140, 504, 1249, 606], "classes": [0, 0, 0, 0, 0], "detections": [{"class_id": 0, "confidence": 0.4711601138114929, "bbox": [1140, 504, 1249, 606], "camera_id": "unreal_local", "timestamp": "2026-03-11T12:40:18.816200+00:00"}, {"class_id": 0, "confidence": 0.4151495099067688, "bbox": [752, 239, 980, 578], "camera_id": "unreal_local", "timestamp": "2026-03-11T12:40:18.816200+00:00"}, {"class_id": 0, "confidence": 0.3322368264198303, "bbox": [748, 354, 903, 580], "camera_id": "unreal_local", "timestamp": "2026-03-11T12:40:18.816200+00:00"}, {"class_id": 0, "confidence": 0.29568588733673096, "bbox": [1272, 444, 1334, 515], "camera_id": "unreal_local", "timestamp": "2026-03-11T12:40:18.816200+00:00"}, {"class_id": 0, "confidence": 0.25643980503082275, "bbox": [896, 204, 1057, 372], "camera_id": "unreal_local", "timestamp": "2026-03-11T12:40:18.816200+00:00"}], "summary": {"raw_detection_count": 5, "classes": [0, 0, 0, 0, 0], "best_detection": {"confidence": 0.4712, "bbox": [1140, 504, 1249, 606]}}, "telemetry": {"position": {"lat": 47.6069393156224, "lon": -122.33650826480998, "alt": 120.0, "alt_agl": 36.800392150878906}, "orientation": {"yaw": 100.10770416259766, "pitch": 0.0, "roll": 0.0}, "camera_mount": {"pitch_deg": 32.000000000000014, "yaw_deg": 0.0, "roll_deg": 0.0}, "captured_at": "2026-03-11T12:40:18+00:00", "source": "sim"}}
{"timestamp": "2026-03-11T12:42:42.030529Z", "count": 1, "best_confidence": 0.2926, "best_bbox": [1216, 264, 1333, 349], "classes": [0], "detections": [{"class_id": 0, "confidence": 0.2926141619682312, "bbox": [1216, 264, 1333, 349], "camera_id": "unreal_local", "timestamp": "2026-03-11T12:42:42.029526+00:00"}], "summary": {"raw_detection_count": 1, "classes": [0], "best_detection": {"confidence": 0.2926, "bbox": [1216, 264, 1333, 349]}}, "telemetry": {"position": {"lat": 47.606165827905194, "lon": -122.3357105343361, "alt": 120.0, "alt_agl": 27.923280715942383}, "orientation": {"yaw": 142.8776092529297, "pitch": 0.0, "roll": 0.0}, "camera_mount": {"pitch_deg": 34.64317448370541, "yaw_deg": 106.85741953691159, "roll_deg": -5.056650705955423e-07}, "captured_at": "2026-03-11T12:42:41+00:00", "source": "sim"}}
{"timestamp": "2026-03-11T12:42:42.346440Z", "count": 1, "best_confidence": 0.3146, "best_bbox": [671, 251, 736, 325], "classes": [0], "detections": [{"class_id": 0, "confidence": 0.3146175444126129, "bbox": [671, 251, 736, 325], "camera_id": "unreal_local", "timestamp": "2026-03-11T12:42:42.300537+00:00"}], "summary": {"raw_detection_count": 1, "classes": [0], "best_detection": {"confidence": 0.3146, "bbox": [671, 251, 736, 325]}}, "telemetry": {"position": {"lat": 47.606173733638435, "lon": -122.33574618201142, "alt": 120.0, "alt_agl": 27.40283203125}, "orientation": {"yaw": 160.88453674316406, "pitch": 0.0, "roll": 0.0}, "camera_mount": {"pitch_deg": 35.40426536976864, "yaw_deg": 93.07063552116871, "roll_deg": -4.997390757771078e-07}, "captured_at": "2026-03-11T12:42:42+00:00", "source": "sim"}}
{"timestamp": "2026-03-11T12:42:42.586924Z", "count": 1, "best_confidence": 0.3308, "best_bbox": [704, 262, 770, 324], "classes": [0], "detections": [{"class_id": 0, "confidence": 0.3308178186416626, "bbox": [704, 262, 770, 324], "camera_id": "unreal_local", "timestamp": "2026-03-11T12:42:42.542338+00:00"}], "summary": {"raw_detection_count": 1, "classes": [0], "best_detection": {"confidence": 0.3308, "bbox": [704, 262, 770, 324]}}, "telemetry": {"position": {"lat": 47.60617793290428, "lon": -122.33576954952622, "alt": 120.0, "alt_agl": 27.061826705932617}, "orientation": {"yaw": 164.27700805664062, "pitch": 0.0, "roll": 0.0}, "camera_mount": {"pitch_deg": 35.76993780045393, "yaw_deg": 89.13986045446632, "roll_deg": -4.945845348528884e-07}, "captured_at": "2026-03-11T12:42:42+00:00", "source": "sim"}}
{"timestamp": "2026-03-11T12:58:28.859338Z", "count": 1, "best_confidence": 0.7585, "best_bbox": [777, 527, 993, 668], "classes": [0], "detections": [{"class_id": 0, "confidence": 0.7584530711174011, "bbox": [777, 527, 993, 668], "camera_id": "unreal_local", "timestamp": "2026-03-11T12:58:28.729555+00:00"}], "summary": {"raw_detection_count": 1, "classes": [0], "best_detection": {"confidence": 0.7585, "bbox": [777, 527, 993, 668]}}, "telemetry": {"position": {"lat": 47.60506152178892, "lon": -122.33556560209902, "alt": 120.0, "alt_agl": 39.098575592041016}, "orientation": {"yaw": 96.51985168457031, "pitch": 0.0, "roll": 0.0}, "camera_mount": {"pitch_deg": 32.0, "yaw_deg": 0.0, "roll_deg": 0.0}, "captured_at": "2026-03-11T12:58:28+00:00", "source": "sim"}}
{"timestamp": "2026-03-11T12:58:29.208741Z", "count": 1, "best_confidence": 0.7758, "best_bbox": [772, 509, 1005, 702], "classes": [0], "detections": [{"class_id": 0, "confidence": 0.7932078838348389, "bbox": [772, 509, 1005, 702], "camera_id": "unreal_local", "timestamp": "2026-03-11T12:58:29.065044+00:00"}], "summary": {"raw_detection_count": 1, "classes": [0], "best_detection": {"confidence": 0.7758, "bbox": [772, 509, 1005, 702]}}, "telemetry": {"position": {"lat": 47.60507370170071, "lon": -122.33556766671062, "alt": 120.0, "alt_agl": 39.12451171875}, "orientation": {"yaw": 96.51985168457031, "pitch": 0.0, "roll": 0.0}, "camera_mount": {"pitch_deg": 32.0, "yaw_deg": 0.0, "roll_deg": 0.0}, "captured_at": "2026-03-11T12:58:29+00:00", "source": "sim"}}
{"timestamp": "2026-03-11T12:58:29.404853Z", "count": 1, "best_confidence": 0.7933, "best_bbox": [736, 499, 986, 704], "classes": [0], "detections": [{"class_id": 0, "confidence": 0.8281017541885376, "bbox": [736, 499, 986, 704], "camera_id": "unreal_local", "timestamp": "2026-03-11T12:58:29.403854+00:00"}], "summary": {"raw_detection_count": 1, "classes": [0], "best_detection": {"confidence": 0.7933, "bbox": [736, 499, 986, 704]}}, "telemetry": {"position": {"lat": 47.60507532308838, "lon": -122.33556794154991, "alt": 120.0, "alt_agl": 39.127891540527344}, "orientation": {"yaw": 96.51985168457031, "pitch": 0.0, "roll": 0.0}, "camera_mount": {"pitch_deg": 32.0, "yaw_deg": 0.0, "roll_deg": 0.0}, "captured_at": "2026-03-11T12:58:29+00:00", "source": "sim"}}
{"timestamp": "2026-03-11T12:58:29.725689Z", "count": 1, "best_confidence": 0.8206, "best_bbox": [721, 498, 994, 712], "classes": [0], "detections": [{"class_id": 0, "confidence": 0.8404437899589539, "bbox": [721, 498, 994, 712], "camera_id": "unreal_local", "timestamp": "2026-03-11T12:58:29.725689+00:00"}], "summary": {"raw_detection_count": 1, "classes": [0], "best_detection": {"confidence": 0.8206, "bbox": [721, 498, 994, 712]}}, "telemetry": {"position": {"lat": 47.60507823245383, "lon": -122.33556843471261, "alt": 120.0, "alt_agl": 39.129737854003906}, "orientation": {"yaw": 96.51985168457031, "pitch": 0.0, "roll": 0.0}, "camera_mount": {"pitch_deg": 32.0, "yaw_deg": 0.0, "roll_deg": 0.0}, "captured_at": "2026-03-11T12:58:29+00:00", "source": "sim"}}
{"timestamp": "2026-03-11T12:58:30.046842Z", "count": 1, "best_confidence": 0.828, "best_bbox": [722, 477, 1008, 715], "classes": [0], "detections": [{"class_id": 0, "confidence": 0.8155015110969543, "bbox": [722, 477, 1008, 715], "camera_id": "unreal_local", "timestamp": "2026-03-11T12:58:30.046842+00:00"}], "summary": {"raw_detection_count": 1, "classes": [0], "best_detection": {"confidence": 0.828, "bbox": [722, 477, 1008, 715]}}, "telemetry": {"position": {"lat": 47.605081102504464, "lon": -122.33556892121112, "alt": 120.0, "alt_agl": 39.13002014160156}, "orientation": {"yaw": 96.51985168457031, "pitch": 0.0, "roll": 0.0}, "camera_mount": {"pitch_deg": 32.0, "yaw_deg": 0.0, "roll_deg": 0.0}, "captured_at": "2026-03-11T12:58:29+00:00", "source": "sim"}}
{"timestamp": "2026-03-11T12:58:30.491532Z", "count": 2, "best_confidence": 0.7952, "best_bbox": [718, 483, 996, 723], "classes": [0, 0], "detections": [{"class_id": 0, "confidence": 0.7296074628829956, "bbox": [718, 483, 996, 723], "camera_id": "unreal_local", "timestamp": "2026-03-11T12:58:30.373015+00:00"}, {"class_id": 0, "confidence": 0.5574844479560852, "bbox": [1016, 444, 1121, 558], "camera_id": "unreal_local", "timestamp": "2026-03-11T12:58:30.373015+00:00"}], "summary": {"raw_detection_count": 2, "classes": [0, 0], "best_detection": {"confidence": 0.7952, "bbox": [718, 483, 996, 723]}}, "telemetry": {"position": {"lat": 47.60508538777417, "lon": -122.33556964760155, "alt": 120.0, "alt_agl": 39.138282775878906}, "orientation": {"yaw": 96.51985168457031, "pitch": 0.0, "roll": 0.0}, "camera_mount": {"pitch_deg": 32.0, "yaw_deg": 0.0, "roll_deg": 0.0}, "captured_at": "2026-03-11T12:58:30+00:00", "source": "sim"}}
{"timestamp": "2026-03-11T12:58:30.710382Z", "count": 1, "best_confidence": 0.6871, "best_bbox": [685, 479, 992, 721], "classes": [0], "detections": [{"class_id": 0, "confidence": 0.687073290348053, "bbox": [685, 479, 992, 721], "camera_id": "unreal_local", "timestamp": "2026-03-11T12:58:30.707384+00:00"}], "summary": {"raw_detection_count": 1, "classes": [0], "best_detection": {"confidence": 0.6871, "bbox": [685, 479, 992, 721]}}, "telemetry": {"position": {"lat": 47.60508834840838, "lon": -122.33557014945474, "alt": 120.0, "alt_agl": 39.13933563232422}, "orientation": {"yaw": 96.51985168457031, "pitch": 0.0, "roll": 0.0}, "camera_mount": {"pitch_deg": 32.0, "yaw_deg": 0.0, "roll_deg": 0.0}, "captured_at": "2026-03-11T12:58:30+00:00", "source": "sim"}}
{"timestamp": "2026-03-11T13:00:00.822460Z", "count": 1, "best_confidence": 0.7377, "best_bbox": [792, 549, 1061, 669], "classes": [0], "detections": [{"class_id": 0, "confidence": 0.7377438545227051, "bbox": [792, 549, 1061, 669], "camera_id": "unreal_local", "timestamp": "2026-03-11T13:00:00.724475+00:00"}], "summary": {"raw_detection_count": 1, "classes": [0], "best_detection": {"confidence": 0.7377, "bbox": [792, 549, 1061, 669]}}, "telemetry": {"position": {"lat": 47.60752424349461, "lon": -122.33599281316647, "alt": 120.0, "alt_agl": 38.649288177490234}, "orientation": {"yaw": 96.28802490234375, "pitch": 0.0, "roll": 0.0}, "camera_mount": {"pitch_deg": 31.999999999999993, "yaw_deg": 0.0, "roll_deg": 0.0}, "captured_at": "2026-03-11T13:00:00+00:00", "source": "sim"}}
{"timestamp": "2026-03-11T13:00:01.072054Z", "count": 2, "best_confidence": 0.8188, "best_bbox": [787, 533, 1114, 682], "classes": [0, 1], "detections": [{"class_id": 0, "confidence": 0.8997848629951477, "bbox": [787, 533, 1114, 682], "camera_id": "unreal_local", "timestamp": "2026-03-11T13:00:00.979564+00:00"}, {"class_id": 1, "confidence": 0.32879823446273804, "bbox": [1472, 8, 1779, 1079], "camera_id": "unreal_local", "timestamp": "2026-03-11T13:00:00.979564+00:00"}], "summary": {"raw_detection_count": 2, "classes": [0, 1], "best_detection": {"confidence": 0.8188, "bbox": [787, 533, 1114, 682]}}, "telemetry": {"position": {"lat": 47.60753481437735, "lon": -122.3359945407671, "alt": 120.0, "alt_agl": 38.68281173706055}, "orientation": {"yaw": 96.28802490234375, "pitch": 0.0, "roll": 0.0}, "camera_mount": {"pitch_deg": 31.999999999999993, "yaw_deg": 0.0, "roll_deg": 0.0}, "captured_at": "2026-03-11T13:00:00+00:00", "source": "sim"}}
{"timestamp": "2026-03-11T13:00:01.319094Z", "count": 1, "best_confidence": 0.8276, "best_bbox": [781, 509, 1139, 683], "classes": [0], "detections": [{"class_id": 0, "confidence": 0.8452069759368896, "bbox": [781, 509, 1139, 683], "camera_id": "unreal_local", "timestamp": "2026-03-11T13:00:01.262486+00:00"}], "summary": {"raw_detection_count": 1, "classes": [0], "best_detection": {"confidence": 0.8276, "bbox": [781, 509, 1139, 683]}}, "telemetry": {"position": {"lat": 47.60753723507542, "lon": -122.3359949363867, "alt": 120.0, "alt_agl": 38.69044876098633}, "orientation": {"yaw": 96.28802490234375, "pitch": 0.0, "roll": 0.0}, "camera_mount": {"pitch_deg": 31.999999999999993, "yaw_deg": 0.0, "roll_deg": 0.0}, "captured_at": "2026-03-11T13:00:01+00:00", "source": "sim"}}
{"timestamp": "2026-03-11T13:00:01.577330Z", "count": 2, "best_confidence": 0.8725, "best_bbox": [795, 483, 1162, 684], "classes": [0, 1], "detections": [{"class_id": 0, "confidence": 0.8726298213005066, "bbox": [795, 483, 1162, 684], "camera_id": "unreal_local", "timestamp": "2026-03-11T13:00:01.512403+00:00"}, {"class_id": 1, "confidence": 0.32102054357528687, "bbox": [1033, 2, 1920, 1079], "camera_id": "unreal_local", "timestamp": "2026-03-11T13:00:01.512403+00:00"}], "summary": {"raw_detection_count": 2, "classes": [0, 1], "best_detection": {"confidence": 0.8725, "bbox": [795, 483, 1162, 684]}}, "telemetry": {"position": {"lat": 47.60753955967262, "lon": -122.33599531630033, "alt": 120.0, "alt_agl": 38.69791030883789}, "orientation": {"yaw": 96.28802490234375, "pitch": 0.0, "roll": 0.0}, "camera_mount": {"pitch_deg": 31.999999999999993, "yaw_deg": 0.0, "roll_deg": 0.0}, "captured_at": "2026-03-11T13:00:01+00:00", "source": "sim"}}
{"timestamp": "2026-03-11T13:00:01.848520Z", "count": 1, "best_confidence": 0.8486, "best_bbox": [790, 453, 1151, 681], "classes": [0], "detections": [{"class_id": 0, "confidence": 0.8278744220733643, "bbox": [790, 453, 1151, 681], "camera_id": "unreal_local", "timestamp": "2026-03-11T13:00:01.769864+00:00"}], "summary": {"raw_detection_count": 1, "classes": [0], "best_detection": {"confidence": 0.8486, "bbox": [790, 453, 1151, 681]}}, "telemetry": {"position": {"lat": 47.60754186630454, "lon": -122.33599569327785, "alt": 120.0, "alt_agl": 38.706356048583984}, "orientation": {"yaw": 96.28802490234375, "pitch": 0.0, "roll": 0.0}, "camera_mount": {"pitch_deg": 31.999999999999993, "yaw_deg": 0.0, "roll_deg": 0.0}, "captured_at": "2026-03-11T13:00:01+00:00", "source": "sim"}}
{"timestamp": "2026-03-11T13:00:02.000921Z", "count": 2, "best_confidence": 0.8328, "best_bbox": [799, 443, 1194, 692], "classes": [0, 1], "detections": [{"class_id": 0, "confidence": 0.7979558110237122, "bbox": [799, 443, 1194, 692], "camera_id": "unreal_local", "timestamp": "2026-03-11T13:00:01.999416+00:00"}, {"class_id": 1, "confidence": 0.4474596381187439, "bbox": [1049, 0, 1920, 1080], "camera_id": "unreal_local", "timestamp": "2026-03-11T13:00:01.999416+00:00"}], "summary": {"raw_detection_count": 2, "classes": [0, 1], "best_detection": {"confidence": 0.8328, "bbox": [799, 443, 1194, 692]}}, "telemetry": {"position": {"lat": 47.60754289611358, "lon": -122.33599586158162, "alt": 120.0, "alt_agl": 38.71012878417969}, "orientation": {"yaw": 96.28802490234375, "pitch": 0.0, "roll": 0.0}, "camera_mount": {"pitch_deg": 31.999999999999993, "yaw_deg": 0.0, "roll_deg": 0.0}, "captured_at": "2026-03-11T13:00:01+00:00", "source": "sim"}}
{"timestamp": "2026-03-11T13:00:02.237170Z", "count": 1, "best_confidence": 0.7992, "best_bbox": [810, 429, 1177, 691], "classes": [0], "detections": [{"class_id": 0, "confidence": 0.7717945575714111, "bbox": [810, 429, 1177, 691], "camera_id": "unreal_local", "timestamp": "2026-03-11T13:00:02.236171+00:00"}], "summary": {"raw_detection_count": 1, "classes": [0], "best_detection": {"confidence": 0.7992, "bbox": [810, 429, 1177, 691]}}, "telemetry": {"position": {"lat": 47.6075449626294, "lon": -122.33599619931648, "alt": 120.0, "alt_agl": 38.7165412902832}, "orientation": {"yaw": 96.28802490234375, "pitch": 0.0, "roll": 0.0}, "camera_mount": {"pitch_deg": 31.999999999999993, "yaw_deg": 0.0, "roll_deg": 0.0}, "captured_at": "2026-03-11T13:00:02+00:00", "source": "sim"}}
{"timestamp": "2026-03-11T13:00:02.497053Z", "count": 1, "best_confidence": 0.8038, "best_bbox": [804, 392, 1126, 693], "classes": [0], "detections": [{"class_id": 0, "confidence": 0.8415138125419617, "bbox": [804, 392, 1126, 693], "camera_id": "unreal_local", "timestamp": "2026-03-11T13:00:02.497053+00:00"}], "summary": {"raw_detection_count": 1, "classes": [0], "best_detection": {"confidence": 0.8038, "bbox": [804, 392, 1126, 693]}}, "telemetry": {"position": {"lat": 47.607547276834914, "lon": -122.33599657753177, "alt": 120.0, "alt_agl": 38.72279357910156}, "orientation": {"yaw": 96.28802490234375, "pitch": 0.0, "roll": 0.0}, "camera_mount": {"pitch_deg": 31.999999999999993, "yaw_deg": 0.0, "roll_deg": 0.0}, "captured_at": "2026-03-11T13:00:02+00:00", "source": "sim"}}
{"timestamp": "2026-03-11T13:00:02.753488Z", "count": 1, "best_confidence": 0.8111, "best_bbox": [804, 373, 1130, 694], "classes": [0], "detections": [{"class_id": 0, "confidence": 0.8198996186256409, "bbox": [804, 373, 1130, 694], "camera_id": "unreal_local", "timestamp": "2026-03-11T13:00:02.752490+00:00"}], "summary": {"raw_detection_count": 1, "classes": [0], "best_detection": {"confidence": 0.8111, "bbox": [804, 373, 1130, 694]}}, "telemetry": {"position": {"lat": 47.60754939413312, "lon": -122.33599692356611, "alt": 120.0, "alt_agl": 38.730224609375}, "orientation": {"yaw": 96.28802490234375, "pitch": 0.0, "roll": 0.0}, "camera_mount": {"pitch_deg": 31.999999999999993, "yaw_deg": 0.0, "roll_deg": 0.0}, "captured_at": "2026-03-11T13:00:02+00:00", "source": "sim"}}
{"timestamp": "2026-03-11T13:00:03.005150Z", "count": 1, "best_confidence": 0.8294, "best_bbox": [808, 326, 1161, 694], "classes": [0], "detections": [{"class_id": 0, "confidence": 0.8266589641571045, "bbox": [808, 326, 1161, 694], "camera_id": "unreal_local", "timestamp": "2026-03-11T13:00:03.004644+00:00"}], "summary": {"raw_detection_count": 1, "classes": [0], "best_detection": {"confidence": 0.8294, "bbox": [808, 326, 1161, 694]}}, "telemetry": {"position": {"lat": 47.60755188551642, "lon": -122.33599733073792, "alt": 120.0, "alt_agl": 38.739131927490234}, "orientation": {"yaw": 96.28802490234375, "pitch": 0.0, "roll": 0.0}, "camera_mount": {"pitch_deg": 31.999999999999993, "yaw_deg": 0.0, "roll_deg": 0.0}, "captured_at": "2026-03-11T13:00:02+00:00", "source": "sim"}}
{"timestamp": "2026-03-11T13:00:03.351682Z", "count": 1, "best_confidence": 0.5053, "best_bbox": [820, 305, 1151, 700], "classes": [0], "detections": [{"class_id": 0, "confidence": 0.5052997469902039, "bbox": [820, 305, 1151, 700], "camera_id": "unreal_local", "timestamp": "2026-03-11T13:00:03.270038+00:00"}], "summary": {"raw_detection_count": 1, "classes": [0], "best_detection": {"confidence": 0.5053, "bbox": [820, 305, 1151, 700]}}, "telemetry": {"position": {"lat": 47.60755524418809, "lon": -122.33599787965244, "alt": 120.0, "alt_agl": 38.747947692871094}, "orientation": {"yaw": 96.28802490234375, "pitch": 0.0, "roll": 0.0}, "camera_mount": {"pitch_deg": 31.999999999999993, "yaw_deg": 0.0, "roll_deg": 0.0}, "captured_at": "2026-03-11T13:00:03+00:00", "source": "sim"}}
{"timestamp": "2026-03-11T13:00:06.046571Z", "count": 2, "best_confidence": 0.5485, "best_bbox": [1346, 473, 1496, 562], "classes": [0, 0], "detections": [{"class_id": 0, "confidence": 0.5484752058982849, "bbox": [1346, 473, 1496, 562], "camera_id": "unreal_local", "timestamp": "2026-03-11T13:00:05.967371+00:00"}, {"class_id": 0, "confidence": 0.32718682289123535, "bbox": [778, 197, 1309, 805], "camera_id": "unreal_local", "timestamp": "2026-03-11T13:00:05.967371+00:00"}], "summary": {"raw_detection_count": 2, "classes": [0, 0], "best_detection": {"confidence": 0.5485, "bbox": [1346, 473, 1496, 562]}}, "telemetry": {"position": {"lat": 47.60763867752431, "lon": -122.33601151518135, "alt": 120.0, "alt_agl": 38.789520263671875}, "orientation": {"yaw": 96.28802490234375, "pitch": 0.0, "roll": 0.0}, "camera_mount": {"pitch_deg": 31.999999999999993, "yaw_deg": 0.0, "roll_deg": 0.0}, "captured_at": "2026-03-11T13:00:05+00:00", "source": "sim"}}
{"timestamp": "2026-03-11T13:00:06.305231Z", "count": 1, "best_confidence": 0.5485, "best_bbox": [769, 191, 1284, 844], "classes": [0], "detections": [{"class_id": 0, "confidence": 0.4819165766239166, "bbox": [769, 191, 1284, 844], "camera_id": "unreal_local", "timestamp": "2026-03-11T13:00:06.216638+00:00"}], "summary": {"raw_detection_count": 1, "classes": [0], "best_detection": {"confidence": 0.5485, "bbox": [769, 191, 1284, 844]}}, "telemetry": {"position": {"lat": 47.607654914309464, "lon": -122.33601416875686, "alt": 120.0, "alt_agl": 38.75193405151367}, "orientation": {"yaw": 96.28802490234375, "pitch": 0.0, "roll": 0.0}, "camera_mount": {"pitch_deg": 31.999999999999993, "yaw_deg": 0.0, "roll_deg": 0.0}, "captured_at": "2026-03-11T13:00:06+00:00", "source": "sim"}}
{"timestamp": "2026-03-11T13:00:06.572278Z", "count": 1, "best_confidence": 0.5485, "best_bbox": [765, 373, 1148, 869], "classes": [0], "detections": [{"class_id": 0, "confidence": 0.7732811570167542, "bbox": [765, 373, 1148, 869], "camera_id": "unreal_local", "timestamp": "2026-03-11T13:00:06.471028+00:00"}], "summary": {"raw_detection_count": 1, "classes": [0], "best_detection": {"confidence": 0.5485, "bbox": [765, 373, 1148, 869]}}, "telemetry": {"position": {"lat": 47.60767179358594, "lon": -122.33601692733461, "alt": 120.0, "alt_agl": 38.7109260559082}, "orientation": {"yaw": 96.28802490234375, "pitch": 0.0, "roll": 0.0}, "camera_mount": {"pitch_deg": 31.999999999999993, "yaw_deg": 0.0, "roll_deg": 0.0}, "captured_at": "2026-03-11T13:00:06+00:00", "source": "sim"}}
{"timestamp": "2026-03-11T13:00:06.807185Z", "count": 2, "best_confidence": 0.7384, "best_bbox": [1401, 428, 1566, 687], "classes": [0, 0], "detections": [{"class_id": 0, "confidence": 0.7384067177772522, "bbox": [1401, 428, 1566, 687], "camera_id": "unreal_local", "timestamp": "2026-03-11T13:00:06.727332+00:00"}, {"class_id": 0, "confidence": 0.7182538509368896, "bbox": [747, 381, 1149, 906], "camera_id": "unreal_local", "timestamp": "2026-03-11T13:00:06.727332+00:00"}], "summary": {"raw_detection_count": 2, "classes": [0, 0], "best_detection": {"confidence": 0.7384, "bbox": [1401, 428, 1566, 687]}}, "telemetry": {"position": {"lat": 47.607689952661325, "lon": -122.33601989506974, "alt": 120.0, "alt_agl": 38.663448333740234}, "orientation": {"yaw": 96.28802490234375, "pitch": 0.0, "roll": 0.0}, "camera_mount": {"pitch_deg": 31.999999999999993, "yaw_deg": 0.0, "roll_deg": 0.0}, "captured_at": "2026-03-11T13:00:06+00:00", "source": "sim"}}
{"timestamp": "2026-03-11T13:00:07.031416Z", "count": 2, "best_confidence": 0.7384, "best_bbox": [733, 382, 1141, 945], "classes": [0, 0], "detections": [{"class_id": 0, "confidence": 0.5194872617721558, "bbox": [733, 382, 1141, 945], "camera_id": "unreal_local", "timestamp": "2026-03-11T13:00:06.961228+00:00"}, {"class_id": 0, "confidence": 0.29357829689979553, "bbox": [729, 381, 1264, 946], "camera_id": "unreal_local", "timestamp": "2026-03-11T13:00:06.961228+00:00"}], "summary": {"raw_detection_count": 2, "classes": [0, 0], "best_detection": {"confidence": 0.7384, "bbox": [733, 382, 1141, 945]}}, "telemetry": {"position": {"lat": 47.607705167614476, "lon": -122.33602238164737, "alt": 120.0, "alt_agl": 38.61443328857422}, "orientation": {"yaw": 96.28802490234375, "pitch": 0.0, "roll": 0.0}, "camera_mount": {"pitch_deg": 31.999999999999993, "yaw_deg": 0.0, "roll_deg": 0.0}, "captured_at": "2026-03-11T13:00:06+00:00", "source": "sim"}}
{"timestamp": "2026-03-11T13:00:07.296581Z", "count": 1, "best_confidence": 0.7384, "best_bbox": [714, 364, 1354, 992], "classes": [0], "detections": [{"class_id": 0, "confidence": 0.5339597463607788, "bbox": [714, 364, 1354, 992], "camera_id": "unreal_local", "timestamp": "2026-03-11T13:00:07.219875+00:00"}], "summary": {"raw_detection_count": 1, "classes": [0], "best_detection": {"confidence": 0.7384, "bbox": [714, 364, 1354, 992]}}, "telemetry": {"position": {"lat": 47.60772275777568, "lon": -122.33602525640492, "alt": 120.0, "alt_agl": 38.50724792480469}, "orientation": {"yaw": 96.28802490234375, "pitch": 0.0, "roll": 0.0}, "camera_mount": {"pitch_deg": 31.999999999999993, "yaw_deg": 0.0, "roll_deg": 0.0}, "captured_at": "2026-03-11T13:00:07+00:00", "source": "sim"}}
{"timestamp": "2026-03-11T13:00:07.521102Z", "count": 1, "best_confidence": 0.6594, "best_bbox": [719, 329, 1182, 1049], "classes": [0], "detections": [{"class_id": 0, "confidence": 0.7404396533966064, "bbox": [719, 329, 1182, 1049], "camera_id": "unreal_local", "timestamp": "2026-03-11T13:00:07.450122+00:00"}], "summary": {"raw_detection_count": 1, "classes": [0], "best_detection": {"confidence": 0.6594, "bbox": [719, 329, 1182, 1049]}}, "telemetry": {"position": {"lat": 47.607737694732165, "lon": -122.3360276975496, "alt": 120.0, "alt_agl": 38.39226531982422}, "orientation": {"yaw": 96.28802490234375, "pitch": 0.0, "roll": 0.0}, "camera_mount": {"pitch_deg": 31.999999999999993, "yaw_deg": 0.0, "roll_deg": 0.0}, "captured_at": "2026-03-11T13:00:07+00:00", "source": "sim"}}
{"timestamp": "2026-03-11T13:00:07.700528Z", "count": 1, "best_confidence": 0.5596, "best_bbox": [738, 283, 1247, 1000], "classes": [0], "detections": [{"class_id": 0, "confidence": 0.41897931694984436, "bbox": [738, 283, 1247, 1000], "camera_id": "unreal_local", "timestamp": "2026-03-11T13:00:07.699529+00:00"}], "summary": {"raw_detection_count": 1, "classes": [0], "best_detection": {"confidence": 0.5596, "bbox": [738, 283, 1247, 1000]}}, "telemetry": {"position": {"lat": 47.60775307779584, "lon": -122.33603021160151, "alt": 120.0, "alt_agl": 38.233028411865234}, "orientation": {"yaw": 96.28802490234375, "pitch": 0.0, "roll": 0.0}, "camera_mount": {"pitch_deg": 31.999999999999993, "yaw_deg": 0.0, "roll_deg": 0.0}, "captured_at": "2026-03-11T13:00:07+00:00", "source": "sim"}}
{"timestamp": "2026-03-11T13:00:07.949590Z", "count": 2, "best_confidence": 0.5582, "best_bbox": [830, 230, 1231, 840], "classes": [0, 0], "detections": [{"class_id": 0, "confidence": 0.5151111483573914, "bbox": [830, 230, 1231, 840], "camera_id": "unreal_local", "timestamp": "2026-03-11T13:00:07.949590+00:00"}, {"class_id": 0, "confidence": 0.30232855677604675, "bbox": [709, 882, 1198, 1075], "camera_id": "unreal_local", "timestamp": "2026-03-11T13:00:07.949590+00:00"}], "summary": {"raw_detection_count": 2, "classes": [0, 0], "best_detection": {"confidence": 0.5582, "bbox": [830, 230, 1231, 840]}}, "telemetry": {"position": {"lat": 47.60776387658371, "lon": -122.33603197644588, "alt": 120.0, "alt_agl": 38.087276458740234}, "orientation": {"yaw": 96.28802490234375, "pitch": 0.0, "roll": 0.0}, "camera_mount": {"pitch_deg": 31.999999999999993, "yaw_deg": 0.0, "roll_deg": 0.0}, "captured_at": "2026-03-11T13:00:07+00:00", "source": "sim"}}
